{"type":"FeatureCollection","features":[{"type":"Feature","properties":{"id":5235,"ident":"OMDB","type":"large_airport","name":"Dubai International Airport","elevation_ft":62,"municipality":"Dubai"},"geometry":{"type":"Point","coordinates":[55.3643989563,25.2527999878]}},{"type":"Feature","properties":{"id":5226,"ident":"OMAA","type":"large_airport","name":"Abu Dhabi International Airport","elevation_ft":88,"municipality":"Abu Dhabi"},"geometry":{"type":"Point","coordinates":[54.6511001586914,24.4330005645752]}},{"type":"Feature","properties":{"id":5239,"ident":"OMSJ","type":"large_airport","name":"Sharjah International Airport","elevation_ft":111,"municipality":"Sharjah"},"geometry":{"type":"Point","coordinates":[55.5172004699707,25.3285999298096]}},{"type":"Feature","properties":{"id":300320,"ident":"OMDW","type":"large_airport","name":"Al Maktoum International Airport","elevation_ft":114,"municipality":"Jebel Ali"},"geometry":{"type":"Point","coordinates":[55.161389,24.896356]}},{"type":"Feature","properties":{"id":5237,"ident":"OMFJ","type":"medium_airport","name":"Fujairah International Airport","elevation_ft":152,"municipality":""},"geometry":{"type":"Point","coordinates":[56.3240013122559,25.1121997833252]}},{"type":"Feature","properties":{"id":5238,"ident":"OMRK","type":"medium_airport","name":"Ras Al Khaimah International Airport","elevation_ft":102,"municipality":"Ras Al Khaimah"},"geometry":{"type":"Point","coordinates":[55.9388008117676,25.6135005950928]}},{"type":"Feature","properties":{"id":5236,"ident":"OMDM","type":"medium_airport","name":"Al Minhad Air Base","elevation_ft":165,"municipality":"Dubai"},"geometry":{"type":"Point","coordinates":[55.3661994934,25.0268001556]}},{"type":"Feature","properties":{"id":5230,"ident":"OMAL","type":"medium_airport","name":"Al Ain International Airport","elevation_ft":869,"municipality":"Al Ain"},"geometry":{"type":"Point","coordinates":[55.6091995239258,24.2616996765137]}},{"type":"Feature","properties":{"id":5227,"ident":"OMAD","type":"medium_airport","name":"Bateen Airport","elevation_ft":16,"municipality":""},"geometry":{"type":"Point","coordinates":[54.4580993652344,24.4283008575439]}},{"type":"Feature","properties":{"id":5231,"ident":"OMAM","type":"medium_airport","name":"Al Dhafra Air Base","elevation_ft":77,"municipality":""},"geometry":{"type":"Point","coordinates":[54.5476989746,24.2481994629]}},{"type":"Feature","properties":{"id":42255,"ident":"OMUQ","type":"small_airport","name":"Umm Al Quwain","elevation_ft":"","municipality":""},"geometry":{"type":"Point","coordinates":[55.6511116027832,25.5772228240967]}},{"type":"Feature","properties":{"id":2,"ident":"OM11","type":"small_airport","name":"Abu Dhabi Northeast Airport","elevation_ft":88,"municipality":"Abu Dhabi"},"geometry":{"type":"Point","coordinates":[54.9800987243652,24.5188999176025]}},{"type":"Feature","properties":{"id":42257,"ident":"AE-0001","type":"small_airport","name":"Ras Sumeira","elevation_ft":"","municipality":""},"geometry":{"type":"Point","coordinates":[51.4498901367188,24.214693069458]}},{"type":"Feature","properties":{"id":5228,"ident":"OMAH","type":"small_airport","name":"Al Hamra Aux Airport","elevation_ft":50,"municipality":""},"geometry":{"type":"Point","coordinates":[52.4636001586914,24.0739994049072]}},{"type":"Feature","properties":{"id":5229,"ident":"OMAJ","type":"small_airport","name":"Jebel Dhana Airport","elevation_ft":43,"municipality":""},"geometry":{"type":"Point","coordinates":[52.6139984130859,24.1874008178711]}},{"type":"Feature","properties":{"id":42259,"ident":"OMAF","type":"small_airport","name":"Futaysi","elevation_ft":"","municipality":""},"geometry":{"type":"Point","coordinates":[54.3161125183106,24.3788890838623]}},{"type":"Feature","properties":{"id":42260,"ident":"OMAB","type":"small_airport","name":"Buhasa Airport","elevation_ft":"","municipality":""},"geometry":{"type":"Point","coordinates":[53.3793983459473,23.5997009277344]}},{"type":"Feature","properties":{"id":42253,"ident":"OMRS","type":"small_airport","name":"Al Saqr Field","elevation_ft":"","municipality":""},"geometry":{"type":"Point","coordinates":[55.9594459533691,25.7527770996094]}},{"type":"Feature","properties":{"id":5232,"ident":"OMAR","type":"small_airport","name":"Arzanah Airport","elevation_ft":15,"municipality":"Arzanah Island"},"geometry":{"type":"Point","coordinates":[52.5598983764648,24.7805004119873]}},{"type":"Feature","properties":{"id":5233,"ident":"OMAS","type":"small_airport","name":"Das Island Airport","elevation_ft":12,"municipality":"Das Island"},"geometry":{"type":"Point","coordinates":[52.8736991882324,25.1462001800537]}},{"type":"Feature","properties":{"id":42258,"ident":"OMAQ","type":"small_airport","name":"Qarnayn Airport","elevation_ft":"","municipality":"Qarnayn Island"},"geometry":{"type":"Point","coordinates":[52.8550987243652,24.9305992126465]}},{"type":"Feature","properties":{"id":42254,"ident":"OM10","type":"small_airport","name":"Yas Island Airport","elevation_ft":"","municipality":"Yas Island"},"geometry":{"type":"Point","coordinates":[52.5803985595703,24.2840003967285]}},{"type":"Feature","properties":{"id":5234,"ident":"OMAZ","type":"small_airport","name":"Zirku Airport","elevation_ft":14,"municipality":"Zirku Island"},"geometry":{"type":"Point","coordinates":[53.0771408081055,24.862491607666]}},{"type":"Feature","properties":{"id":42256,"ident":"OMAC","type":"closed","name":"Asab Airfield","elevation_ft":"","municipality":""},"geometry":{"type":"Point","coordinates":[54.2216987609863,23.2980995178223]}},{"type":"Feature","properties":{"id":315653,"ident":"OMBY","type":"medium_airport","name":"Sir Bani Yas Airport","elevation_ft":25,"municipality":""},"geometry":{"type":"Point","coordinates":[52.580278,24.283611]}},{"type":"Feature","properties":{"id":319177,"ident":"AE-0014","type":"heliport","name":"Ghantoot Racing & Polo Club Helipad","elevation_ft":"","municipality":""},"geometry":{"type":"Point","coordinates":[54.905556,24.86824]}},{"type":"Feature","properties":{"id":319178,"ident":"AE-0015","type":"heliport","name":"Golden Tulip Al Jazira Helipad","elevation_ft":"","municipality":""},"geometry":{"type":"Point","coordinates":[54.894996,24.858628]}},{"type":"Feature","properties":{"id":319179,"ident":"AE-0016","type":"heliport","name":"Ghantoot Hotel 1 Helipad","elevation_ft":"","municipality":""},"geometry":{"type":"Point","coordinates":[54.88826,24.866038]}},{"type":"Feature","properties":{"id":319180,"ident":"AE-0017","type":"heliport","name":"Ghantoot Hotel 2 Helipad","elevation_ft":"","municipality":""},"geometry":{"type":"Point","coordinates":[54.882283,24.865417]}},{"type":"Feature","properties":{"id":319181,"ident":"AE-0018","type":"heliport","name":"Ghantoot Hotel 3 Helipad","elevation_ft":"","municipality":""},"geometry":{"type":"Point","coordinates":[54.860294,24.894949]}},{"type":"Feature","properties":{"id":319188,"ident":"AE-0023","type":"heliport","name":"Al Forsan Helipad","elevation_ft":"","municipality":""},"geometry":{"type":"Point","coordinates":[54.543507,24.406998]}},{"type":"Feature","properties":{"id":319192,"ident":"AE-0024","type":"small_airport","name":"Yasat Higher Airport","elevation_ft":"","municipality":""},"geometry":{"type":"Point","coordinates":[52.006719,24.221075]}},{"type":"Feature","properties":{"id":300977,"ident":"AE-0003","type":"small_airport","name":"Dubai Skydive","elevation_ft":"","municipality":""},"geometry":{"type":"Point","coordinates":[55.1366257668,25.0898742332]}},{"type":"Feature","properties":{"id":307257,"ident":"AE-0004","type":"heliport","name":"Sheikh Sultan Bin Khalifa bin Zayed Al Nahyan palace Heliport Complex","elevation_ft":"","municipality":""},"geometry":{"type":"Point","coordinates":[55.1746809483,25.1225658976]}},{"type":"Feature","properties":{"id":313547,"ident":"AE-0007","type":"heliport","name":"Al Ghuwaifat Border Post helipad","elevation_ft":"","municipality":""},"geometry":{"type":"Point","coordinates":[51.600595,24.120421]}},{"type":"Feature","properties":{"id":313548,"ident":"AE-0008","type":"heliport","name":"Al Ghuwaifat Customs Post helipad","elevation_ft":"","municipality":""},"geometry":{"type":"Point","coordinates":[51.616767,24.128339]}},{"type":"Feature","properties":{"id":319174,"ident":"AE-0011","type":"heliport","name":"Palm Jumeirah Heliport","elevation_ft":"","municipality":""},"geometry":{"type":"Point","coordinates":[55.114092,25.127297]}},{"type":"Feature","properties":{"id":319175,"ident":"AE-0012","type":"heliport","name":"Waldorf Astoria Dubai Palm Jumeirah Helipad","elevation_ft":"","municipality":""},"geometry":{"type":"Point","coordinates":[55.150379,25.133372]}},{"type":"Feature","properties":{"id":319176,"ident":"AE-0013","type":"heliport","name":"Oceana Palm Jumeirah Helipad","elevation_ft":"","municipality":""},"geometry":{"type":"Point","coordinates":[55.135169,25.110083]}},{"type":"Feature","properties":{"id":307258,"ident":"AE-0005","type":"heliport","name":"Kempinski Emirates Palace Twin Heliport","elevation_ft":"","municipality":""},"geometry":{"type":"Point","coordinates":[54.3205904961,24.4622678828]}},{"type":"Feature","properties":{"id":317271,"ident":"AYM","type":"seaplane_base","name":"Yas Island Seaplane Base","elevation_ft":0,"municipality":"Abu Dhabi"},"geometry":{"type":"Point","coordinates":[54.6103,24.467]}},{"type":"Feature","properties":{"id":319184,"ident":"AE-0020","type":"heliport","name":"Yas Marina Heliport","elevation_ft":"","municipality":"Abu Dhabi"},"geometry":{"type":"Point","coordinates":[54.609561,24.468368]}},{"type":"Feature","properties":{"id":319185,"ident":"AE-0021","type":"heliport","name":"Yas Marina Circuit Heliport","elevation_ft":"","municipality":"Abu Dhabi"},"geometry":{"type":"Point","coordinates":[54.603443,24.469136]}},{"type":"Feature","properties":{"id":319187,"ident":"AE-0022","type":"heliport","name":"Al Mushrif Palace Helipad","elevation_ft":"","municipality":"Abu Dhabi"},"geometry":{"type":"Point","coordinates":[54.377368,24.452066]}},{"type":"Feature","properties":{"id":319193,"ident":"AE-0025","type":"heliport","name":"Sila Hospitals Helipad","elevation_ft":"","municipality":"Baya Al Sila"},"geometry":{"type":"Point","coordinates":[51.762519,24.068301]}},{"type":"Feature","properties":{"id":315507,"ident":"ZDY","type":"small_airport","name":"Delma Airport","elevation_ft":30,"municipality":"Delma Island"},"geometry":{"type":"Point","coordinates":[52.3352,24.51]}},{"type":"Feature","properties":{"id":315508,"ident":"AE-0009","type":"heliport","name":"Delma Hospital Helipad","elevation_ft":17,"municipality":"Delma Island"},"geometry":{"type":"Point","coordinates":[52.3101,24.4756]}},{"type":"Feature","properties":{"id":44426,"ident":"AE-0002","type":"heliport","name":"Burj al Arab Resort Helipad","elevation_ft":689,"municipality":"Dubai"},"geometry":{"type":"Point","coordinates":[55.185496,25.141327]}},{"type":"Feature","properties":{"id":300319,"ident":"DCG","type":"seaplane_base","name":"Dubai Creek SPB","elevation_ft":"","municipality":"Dubai"},"geometry":{"type":"Point","coordinates":[55.3313888889,25.2422222222]}},{"type":"Feature","properties":{"id":319172,"ident":"AE-0010","type":"heliport","name":"Schumacher Heliport","elevation_ft":"","municipality":"Dubai"},"geometry":{"type":"Point","coordinates":[55.138836,25.221807]}},{"type":"Feature","properties":{"id":319183,"ident":"AE-0019","type":"heliport","name":"Dubai Festival City Helipad","elevation_ft":"","municipality":"Dubai"},"geometry":{"type":"Point","coordinates":[55.349227,25.220765]}},{"type":"Feature","properties":{"id":325303,"ident":"AE-0026","type":"small_airport","name":"LOAN OFFER","elevation_ft":"","municipality":"dubia"},"geometry":{"type":"Point","coordinates":[0,0]}},{"type":"Feature","properties":{"id":313546,"ident":"AE-0006","type":"seaplane_base","name":"Jebel Ali Seaplane Base","elevation_ft":0,"municipality":"Jebel Ali"},"geometry":{"type":"Point","coordinates":[55.023796,24.988967]}}]}